{
  "ADR": {
    "ALE": {
      "height": ["10m"],
      "height_name": ["10magl"],
      "height_station_masl": 10,
      "latitude": 51.7,
      "long_name": "Adrigole, Ireland",
      "longitude": -9.72
    }
  },
  "ALT": {
    "NOAA": {
      "height": ["10m"],
      "height_name": ["10magl"],
      "height_station_masl": 200.0,
      "latitude": 82.451,
      "long_name": "Alert, Canada",
      "longitude": -62.506
    }
  },
  "AMS": {
    "NOAA": {
      "height": ["10m"],
      "height_name": ["10magl"],
      "height_station_masl": 55.0,
      "latitude": -37.798,
      "long_name": "Amsterdam Island, France",
      "longitude": 77.538
    }
  },
  "AMT": {
    "NOAA": {
      "height": ["110m"],
      "height_name": ["110magl"],
      "height_station_masl": 53.0,
      "latitude": 45.0345,
      "long_name": "Argyle, Maine, United States",
      "longitude": -68.6821
    }
  },
  "ARH": {
    "NIWA": {
      "height": ["5m"],
      "height_name": ["5magl"],
      "height_station_masl": 104.0,
      "latitude": -77.8,
      "long_name": "Arrival Heights, New Zealand",
      "longitude": 166.67
    }
  },
  "ASC": {
    "RHUL": {
      "height": ["10m"],
      "height_name": ["10magl"],
      "height_station_masl": 54.0,
      "latitude": -7.92,
      "long_name": "Ascension Island, UK",
      "longitude": -14.42
    }
  },
  "ASK": {
    "NOAA": {
      "height": ["10m"],
      "height_name": ["10magl"],
      "height_station_masl": 2710.0,
      "latitude": 23.262,
      "long_name": "Assekrem, Algeria",
      "longitude": 5.632
    }
  },
  "ASP": {
    "AGAGE": {
      "height": ["10m"],
      "height_name": ["10magl"],
      "height_station_masl": 10.0,
      "latitude": -38.0,
      "long_name": "Aspendale, Australia",
      "longitude": 145.1
    }
  },
  "ATO": {
    "ATTO": {
      "long_name": "Amazon Tall Tower Observatory, State of Amazonas, Brazil",
      "height": ["79m", "53m", "38m", "24m", "4m"],
      "height_name": ["79magl", "53magl", "38magl", "24magl", "4magl"],
      "height_station_masl": 85.0,
      "latitude": -2.1441,
      "longitude": -58.9999
    }
  },
  "AZR": {
    "NOAA": {
      "height": ["10m"],
      "height_name": ["10magl"],
      "height_station_masl": 19.0,
      "latitude": 38.766,
      "long_name": "Terceira Island, Azores, Portugal",
      "longitude": -27.375
    }
  },
  "BAO": {
    "NOAA": {
      "height": ["300m"],
      "height_name": ["300magl"],
      "height_station_masl": 1584.0,
      "latitude": 40.05,
      "long_name": "Boulder Atmospheric Observatory, Colorado, United States",
      "longitude": -105.004
    }
  },
  "BCK": {
    "EC": {
      "height": ["60m"],
      "height_name": ["60magl"],
      "height_station_masl": 160.0,
      "latitude": 62.797934,
      "long_name": "Behchoko, Northwest Territories, Canada",
      "longitude": -115.918255
    }
  },
  "BHD": {
    "NOAA": {
      "height": ["10m"],
      "height_name": ["10magl"],
      "height_station_masl": 85.0,
      "latitude": -41.41,
      "long_name": "Baring Head, New Zealand",
      "longitude": 174.87
    }
  },
  "BMW": {
    "NOAA": {
      "height": ["30m"],
      "height_name": ["30magl"],
      "height_station_masl": 30.0,
      "latitude": 32.2647,
      "long_name": "Tudor Hill, Bermuda",
      "longitude": -64.8788
    }
  },
  "BRA": {
    "EC": {
      "height": ["35m"],
      "height_name": ["35magl"],
      "height_station_masl": 595.0,
      "latitude": 50.201631,
      "long_name": "Bratt's Lake, Saskatchewan, Canada",
      "longitude": -104.711259
    }
  },
  "BRI": {
    "AGAGE": {
      "height": ["10m"],
      "height_name": ["10magl"],
      "height_station_masl": 11.0,
      "latitude": 51.46,
      "long_name": "Bristol, UK",
      "longitude": -2.6
    }
  },
  "BRW": {
    "NOAA": {
      "height": ["17m", "11m", "5m"],
      "height_name": ["17magl", "11magl", "5magl"],
      "height_station_masl": 11.0,
      "latitude": 71.323,
      "long_name": "Barrow, Alaska",
      "longitude": -156.6114
    }
  },
  "BSD": {
    "DECC": {
      "height": ["108m", "42m", "248m"],
      "height_name": ["110magl", "50magl", "250magl"],
      "height_station_masl": 380.0,
      "latitude": 54.35858,
      "long_name": "Bilsdale, UK",
      "longitude": -1.15033
    },
    "EUROCOM": {
      "height": ["108m", "42m", "248m"],
      "height_name": ["110magl", "50magl", "250magl"],
      "height_station_masl": 380.0,
      "latitude": 54.35858,
      "long_name": "Bilsdale, UK",
      "longitude": -1.15033
    }
  },
  "BTT": {
    "GAUGE": {
      "height": ["185m"],
      "height_name": ["185magl"],
      "latitude": 51.5215,
      "long_name": "BT Tower, UK",
      "longitude": -0.1389
    }
  },
  "CARIBIC": {
    "MPI": {
      "height": ["various"],
      "height_name": ["various"],
      "long_name": "CARIBIC",
      "platform": "aircraft"
    }
  },
  "CBA": {
    "NOAA": {
      "height": ["36m"],
      "height_name": ["36magl"],
      "height_station_masl": 21.34,
      "latitude": 55.21,
      "long_name": "Cold Bay, Alaska",
      "longitude": -162.72
    }
  },
  "CBW": {
    "ECN": {
      "height": ["120m", "20m", "60m", "200m"],
      "height_name": ["120magl", "20magl", "60magl", "200magl"],
      "height_station_masl": 213.0,
      "latitude": 58.97,
      "long_name": "Cabauw Tower, Netherlands",
      "longitude": -4.926
    },
    "EUROCOM": {
      "height": ["120m", "20m", "60m", "200m"],
      "height_name": ["120magl", "20magl", "60magl", "200magl"],
      "height_station_masl": 213.0,
      "latitude": 58.97,
      "long_name": "Cabauw Tower, Netherlands",
      "longitude": -4.926
    }
  },
  "CBY": {
    "EC": {
      "height": ["12m"],
      "height_name": ["12magl"],
      "height_station_masl": 35.0,
      "latitude": 69.128401,
      "long_name": "Cambridge Bay, Nunavut, Canada",
      "longitude": -105.057707
    }
  },
  "CGO": {
    "AGAGE": {
      "height": ["70m", "10m"],
      "height_name": ["70magl", "10magl"],
      "height_station_masl": 94.0,
      "latitude": -40.683,
      "long_name": "Cape Grim, Tasmania",
      "longitude": 144.689
    }
  },
  "CHL": {
    "EC": {
      "height": ["60m"],
      "height_name": ["60magl"],
      "height_station_masl": 29.0,
      "latitude": 58.737902,
      "long_name": "Churchill, Manitoba, Canada",
      "longitude": -93.820581
    }
  },
  "CLA": {
    "NIES": {
      "height": ["10m"],
      "height_name": ["10magl"],
      "long_name": "Comilla, Bangladesh"
    }
  },
  "CMN": {
    "AGAGE": {
      "height": ["10m"],
      "height_name": ["10magl"],
      "height_station_masl": 2155.0,
      "latitude": 44.193889,
      "long_name": "Monte Cimone, Italy",
      "longitude": 10.701389
    },
    "EUROCOM": {
      "height": ["10m"],
      "height_name": ["10magl"],
      "height_station_masl": 2155.0,
      "latitude": 44.193889,
      "long_name": "Monte Cimone, Italy",
      "longitude": 10.701389
    }
  },
  "CMO": {
    "EUROCOM": {
      "height": ["10m"],
      "height_name": ["10magl"],
      "height_station_masl": 30.0,
      "latitude": 45.478,
      "long_name": "Cape Mears, Oregon",
      "longitude": -123.969
    }
  },
  "COI": {
    "NIES": {
      "height": ["10m"],
      "height_name": ["46magl"],
      "height_station_masl": 41.0,
      "latitude": 43.167,
      "long_name": "Cape Ochiishi, Japan",
      "longitude": 145.5
    }
  },
  "CPI": {
    "AGAGE": {
      "height": ["15m"],
      "height_name": ["15magl"],
      "height_station_masl": 15.0,
      "latitude": 52.17,
      "long_name": "Carnsore Point, Ireland",
      "longitude": -6.37
    }
  },
  "CPS": {
    "EC": {
      "height": ["8m"],
      "height_name": ["8magl"],
      "height_station_masl": 391.0,
      "latitude": 49.822317,
      "long_name": "Chapais, Quebec, Canada",
      "longitude": -74.975274
    }
  },
  "CPT": {
    "SAWS": {
      "height": ["30m"],
      "height_name": ["30magl"],
      "height_station_masl": 230.0,
      "latitude": -34.3534812927,
      "long_name": "Cape Point, South Africa",
      "longitude": 18.4896831512
    }
  },
  "CRI": {
    "CSIRO": {
      "height": ["6m"],
      "height_name": ["10magl"],
      "long_name": "Cape Rama, India"
    }
  },
  "CRZ": {
    "NOAA": {
      "height": ["Variable"],
      "height_station_masl": 197.0,
      "latitude": -46.434,
      "long_name": "Crozet Island, France",
      "longitude": 51.848
    }
  },
  "CVO": {
    "UEXETER": {
      "height": ["30m"],
      "height_name": ["30m"],
      "height_station_masl": 10.0,
      "latitude": 16.8636,
      "long_name": "Cape Verde, Africa",
      "longitude": -24.8672
    }
  },
  "DJI": {
    "AGAGE": {
      "height": ["10m"],
      "height_name": ["500magl"],
      "height_station_masl": 2042.0,
      "long_name": "Darjeeling, India",
      "latitude": 27.049,
      "longitude": 88.267
    }
  },
  "EGB": {
    "EC": {
      "height": ["25m"],
      "height_name": ["25magl"],
      "height_station_masl": 251.0,
      "latitude": 44.231006,
      "long_name": "Egbert, Ontario, Canada",
      "longitude": -79.783839
    }
  },
  "EHL": {
    "UCAM": {
      "height": ["25m"],
      "height_name": ["25magl"],
      "height_station_masl": 10.0,
      "latitude": 51.8059,
      "long_name": "Earlshall, UK",
      "longitude": 1.1079
    }
  },
  "EIC": {
    "NOAA": {
      "height": ["10m"],
      "height_name": ["10magl"],
      "height_station_masl": 47.0,
      "latitude": -27.16,
      "long_name": "Easter Island, Chile",
      "longitude": -109.428
    }
  },
  "ESP": {
    "EC": {
      "height": ["40m"],
      "height_name": ["40magl"],
      "height_station_masl": 7.0,
      "latitude": 49.382935,
      "long_name": "Estevan Point, British Columbia, Canada",
      "longitude": -126.544097
    }
  },
  "EST": {
    "EC": {
      "height": ["50m"],
      "height_name": ["50magl"],
      "height_station_masl": 707.0,
      "latitude": 51.669987,
      "long_name": "Esther, Alberta, Canada",
      "longitude": -110.206175
    }
  },
  "ETL": {
    "EC": {
      "height": ["105m"],
      "height_name": ["105magl"],
      "height_station_masl": 493.0,
      "latitude": 54.353743,
      "long_name": "East Trout Lake, Saskatchewan, Canada",
      "longitude": -104.986864
    }
  },
  "FMS": {
    "EC": {
      "height": ["10m"],
      "height_name": ["10magl"],
      "height_station_masl": 250.0,
      "latitude": 57.14908,
      "long_name": "Fort McKay South, Alberta, Canada",
      "longitude": -111.64262
    }
  },
  "FSD": {
    "EC": {
      "height": ["40m"],
      "height_name": ["40magl"],
      "height_station_masl": 210.0,
      "latitude": 49.875168,
      "long_name": "Fraserdale, Ontario, Canada",
      "longitude": -81.569774
    }
  },
  "GAUGE-FAAM": {
    "GAUGE": {
      "height": ["various"],
      "height_name": ["various"],
      "long_name": "GAUGE flights, UK",
      "platform": "aircraft"
    }
  },
  "GAUGE-FERRY": {
    "GAUGE": {
      "height": ["20m"],
      "height_name": ["20magl"],
      "long_name": "GAUGE ferry, UK",
      "platform": "ship"
    }
  },
  "GLA": {
    "GAUGE": {
      "height": ["10m"],
      "height_name": ["10magl"],
      "latitude": 52.46073,
      "long_name": "Glatton, UK",
      "longitude": -0.30359
    }
  },
  "GOSAT-BRAZIL": {
    "GOSAT/GOSAT-BRAZIL": {
      "height": ["column"],
      "height_name": ["column"],
      "long_name": "GOSAT, Brazil",
      "platform": "satellite"
    }
  },
  "GOSAT-BRAZIL-LAND": {
    "GOSAT/GOSAT-BRAZIL-LAND": {
      "height": ["column"],
      "height_name": ["column"],
      "long_name": "GOSAT, Brazil, land points",
      "platform": "satellite"
    }
  },
  "GOSAT-BRAZIL-OCEAN": {
    "GOSAT/GOSAT-BRAZIL-OCEAN": {
      "height": ["column"],
      "height_name": ["column"],
      "long_name": "GOSAT, Brazil, ocean (glint) points",
      "platform": "satellite"
    }
  },
  "GOSAT-EUROPE": {
    "GOSAT/GOSAT-EUROPE": {
      "height": ["column"],
      "height_name": ["column"],
      "long_name": "GOSAT, Europe",
      "platform": "satellite"
    }
  },
  "GOSAT-INDIA": {
    "GOSAT/GOSAT-INDIA": {
      "height": ["column"],
      "height_name": ["column"],
      "long_name": "GOSAT, India",
      "platform": "satellite"
    }
  },
  "GOSAT-UK": {
    "GOSAT/GOSAT-UK": {
      "height": ["column"],
      "height_name": ["column"],
      "long_name": "GOSAT, UK",
      "platform": "satellite"
    }
  },
  "GOSAT-SAHARA": {
    "GOSAT/GOSAT-SAHARA": {
      "height": ["column"],
      "height_name": ["column"],
      "long_name": "GOSAT, Sahara",
      "platform": "satellite"
    }
  },
  "GSN": {
    "AGAGE": {
      "height": ["10m"],
      "height_name": ["10magl"],
      "height_station_masl": 72.0,
      "latitude": 33.29244,
      "long_name": "Gosan, Korea",
      "longitude": 126.1618
    }
  },
  "HAD": {
    "UCAM": {
      "height": ["25m"],
      "height_name": ["20magl"],
      "height_station_masl": 30.0,
      "latitude": 52.35986,
      "long_name": "Haddenham, UK",
      "longitude": 0.14828
    }
  },
  "HAT": {
    "NIES": {
      "height": ["10m"],
      "height_name": ["10magl"],
      "height_station_masl": 8.0,
      "latitude": 24.06,
      "long_name": "Hateruma, Japan",
      "longitude": 123.81
    }
  },
  "HEI": {
    "EUROCOM": {
      "height": ["30m"],
      "height_name": ["30magl"],
      "height_station_masl": 116.0,
      "latitude": 49.417,
      "long_name": "Heidelberg, Germany",
      "longitude": 8.674
    }
  },
  "HFD": {
    "GAUGE": {
      "height": ["100m", "50m"],
      "height_name": ["100magl", "50magl"],
      "height_station_masl": 150.0,
      "latitude": 50.97675,
      "long_name": "Heathfield, UK",
      "longitude": 0.23048
    },
    "DECC": {
      "height": ["100m", "50m"],
      "height_name": ["100magl", "50magl"],
      "height_station_masl": 150.0,
      "latitude": 50.97675,
      "long_name": "Heathfield, UK",
      "longitude": 0.23048
    },
    "EUROCOM": {
      "height": ["100m", "50m"],
      "height_name": ["100magl", "50magl"],
      "height_station_masl": 150.0,
      "latitude": 50.97675,
      "long_name": "Heathfield, UK",
      "longitude": 0.23048
    }
  },
  "HFM": {
    "NOAA": {
      "height": ["29m"],
      "height_name": ["29magl"],
      "height_station_masl": 311.0,
      "latitude": 42.48,
      "long_name": "Harvard Forest, Massachusetts, United States",
      "longitude": -72.18
    }
  },
  "HSU": {
    "NOAA": {
      "height": ["8m"],
      "height_name": ["8magl"],
      "height_station_masl": 0.0,
      "latitude": 41.0588,
      "long_name": "Humboldt State University, United States",
      "longitude": -124.75
    }
  },
  "HUN": {
    "EUROCOM": {
      "height": ["115m"],
      "height_name": ["115magl"],
      "height_station_masl": 248.0,
      "latitude": 46.95,
      "long_name": "Hegyhatsal, Hungary",
      "longitude": 16.65
    }
  },
  "ICE": {
    "NOAA": {
      "height": ["10m"],
      "height_name": ["10magl"],
      "height_station_masl": 118.0,
      "latitude": 63.4,
      "long_name": "Storhofdi, Vestmannaeyjar, Iceland",
      "longitude": -20.288
    }
  },
  "INU": {
    "EC": {
      "height": ["10m"],
      "height_name": ["10magl"],
      "height_station_masl": 113.0,
      "latitude": 68.317817,
      "long_name": "Inuvik, Northwest Territories, Canada",
      "longitude": -133.534232
    }
  },
  "IZA": {
    "UHei": {
      "height": ["10m"],
      "height_name": ["10magl"],
      "height_station_masl": 2367.0,
      "latitude": 28.3,
      "long_name": "Izana, Tenerife",
      "longitude": 16.5
    }
  },
  "IZO": {
    "NOAA": {
      "height": ["10m"],
      "height_name": ["10magl"],
      "height_station_masl": 2372.0,
      "latitude": 28.309,
      "long_name": "Izana, Tenerife",
      "longitude": 16.499
    },
    "EUROCOM": {
      "height": ["10m"],
      "height_station_masl": 2372.0,
      "latitude": 28.309,
      "long_name": "Izana, Tenerife",
      "longitude": 16.499
    }
  },
  "JFJ": {
    "AGAGE": {
      "height": ["10m"],
      "height_name": ["10magl"],
      "height_station_masl": 3570.0,
      "latitude": 46.5475,
      "long_name": "Jungfraujoch, Switzerland",
      "longitude": 7.979167
    },
    "EUROCOM": {
      "height": ["10m"],
      "height_name": ["10magl"],
      "height_station_masl": 3570.0,
      "latitude": 46.5475,
      "long_name": "Jungfraujoch, Switzerland",
      "longitude": 7.979167
    }
  },
  "KAS": {
    "EUROCOM": {
      "height": ["10m"],
      "height_name": ["10magl"],
      "height_station_masl": 1989.0,
      "latitude": 49.232,
      "long_name": "Kasprowy, Poland",
      "longitude": 19.982
    }
  },
  "KEY": {
    "NOAA": {
      "height": ["10m"],
      "height_name": ["10magl"],
      "height_station_masl": 1.0,
      "latitude": 25.6654,
      "long_name": "Key Biscane, Florida",
      "longitude": -80.158
    }
  },
  "KUM": {
    "NOAA": {
      "height": ["10m"],
      "height_name": ["10magl"],
      "height_station_masl": 3.0,
      "latitude": 19.52,
      "long_name": "Cape Kumukahi, Hawaii",
      "longitude": -154.82
    }
  },
  "KZD": {
    "NOAA": {
      "height_station_masl": 595.0,
      "latitude": 44.0839,
      "long_name": "Sary Taukum, Kazakhstan",
      "longitude": 86.8712
    }
  },
  "LEF": {
    "NOAA": {
      "height": ["400m"],
      "height_name": ["400magl"],
      "height_station_masl": 472.0,
      "latitude": 45.9451,
      "long_name": "Park Falls, Wisconsin, United States",
      "longitude": -90.2732
    }
  },
  "LLB": {
    "EC": {
      "height": ["50m", "48m"],
      "height_name": ["50magl", "48magl"],
      "height_station_masl": 540.0,
      "latitude": 54.953809,
      "long_name": "Lac La Biche, Alberta, Canada",
      "longitude": -112.466649
    },
    "NOAA": {
      "height": ["50m", "48m"],
      "height_name": ["50magl", "48magl"],
      "height_station_masl": 540.0,
      "latitude": 54.953809,
      "long_name": "Lac La Biche, Alberta, Canada",
      "longitude": -112.466649
    }
  },
  "LMP": {
    "EUROCOM": {
      "height": ["8m"],
      "height_name": ["8magl"],
      "height_station_masl": 45.0,
      "latitude": 35.52,
      "long_name": "Lampedusa, Italy",
      "longitude": 12.62
    }
  },
  "LUT": {
    "EUROCOM": {
      "height": ["60m"],
      "height_name": ["60magl"],
      "height_station_masl": 1.0,
      "latitude": 53.404,
      "long_name": "Lutjewad, Netherlands",
      "longitude": 6.353
    }
  },
  "MBC": {
    "NOAA": {
      "height": ["10m"],
      "height_name": ["10magl"],
      "height_station_masl": 30.0,
      "latitude": 76.247,
      "long_name": "Mould Bay, Canada",
      "longitude": -119.353
    }
  },
  "MBO": {
    "NOAA": {
      "height": ["10m"],
      "height_name": ["10magl"],
      "height_station_masl": 2731.0,
      "latitude": 43.977,
      "long_name": "Mt. Bachelor Observatory, USA",
      "longitude": -121.686
    }
  },
  "MDO": {
    "UCI": {
      "height": ["10m"],
      "height_name": ["10magl"],
      "height_station_masl": 10.0,
      "latitude": 35.2639,
      "long_name": "Montana de Oro, USA",
      "longitude": -120.8622
    }
  },
  "MHD": {
    "AGAGE": {
      "height": ["10m"],
      "height_name": ["10magl"],
      "height_station_masl": 5.0,
      "latitude": 53.32611,
      "long_name": "Mace Head, Ireland",
      "longitude": -9.90389
    },
    "ICOS": {
      "height": ["10m"],
      "height_name": ["10magl"],
      "height_station_masl": 5.0,
      "latitude": 53.32611,
      "long_name": "Mace Head, Ireland",
      "longitude": -9.90389
    },
    "EUROCOM": {
      "height": ["10m"],
      "height_name": ["10magl"],
      "height_station_masl": 5.0,
      "latitude": 53.32611,
      "long_name": "Mace Head, Ireland",
      "longitude": -9.90389
    }
  },
  "MLO": {
    "NOAA": {
      "height": ["10m"],
      "height_name": ["10magl"],
      "height_station_masl": 3397.0,
      "latitude": 19.5362,
      "long_name": "Mauna Loa, Hawaii",
      "longitude": -155.5763
    }
  },
  "MONSOON-FAAM": {
    "MONSOON": {
      "height": ["various"],
      "height_name": ["various"],
      "long_name": "MONSOON flights, India",
      "platform": "aircraft"
    }
  },
  "MUG": {
    "AGAGE": {
      "height": ["40m"],
      "height_name": ["40magl"],
      "height_station_masl": 2590.0,
      "latitude": -1.588,
      "long_name": "Mugogo, Rwanda",
      "longitude": 29.565
    }
  },
  "MWO": {
    "NOAA": {
      "height": ["46m"],
      "height_name": ["46magl"],
      "height_station_masl": 1728.0,
      "latitude": 34.2246,
      "long_name": "Mt. Wilson Observatory, United States",
      "longitude": -118.0586
    }
  },
  "NDAO": {
    "MPI": {
      "long_name": "Namib Desert Atmospheric Observatory",
      "height": ["21m"],
      "height_name": ["21m"],
      "height_station_masl": 408.0,
      "latitude": -23.563,
      "longitude": 15.046
    }
  },
  "NMY": {
    "UHei": {
      "height": ["10m"],
      "height_name": ["10magl"],
      "height_station_masl": 42.0,
      "latitude": -70.65,
      "long_name": "Neumayer, Antarctica",
      "longitude": -8.25
    }
  },
  "NWR": {
    "NOAA": {
      "height": ["3m"],
      "height_name": ["3magl"],
      "height_station_masl": 3523.0,
      "latitude": 40.0531,
      "long_name": "Niwot Ridge, Colorado, United States",
      "longitude": -105.5864
    }
  },
  "OPE": {
    "EUROCOM": {
      "height": ["120m"],
      "height_name": ["120magl"],
      "height_station_masl": 390.0,
      "latitude": 48.562,
      "long_name": "Observatoire Perenne de l'Environnement, France",
      "longitude": 5.504
    }
  },
  "OXK": {
    "NOAA": {
      "height": ["10m"],
      "height_name": ["10magl"],
      "height_station_masl": 1022.0,
      "latitude": 50.0301,
      "long_name": "Ochsenkopf, Germany",
      "longitude": 11.8084
    }
  },
  "ORG": {
    "ALE": {
      "height": ["10m"],
      "height_name": ["10magl"],
      "height_station_masl": 10,
      "latitude": 45.49,
      "long_name": "Cape Meares, Oregon",
      "longitude": -124
    }
  },
  "PAL": {
    "EUROCOM": {
      "height": ["5m"],
      "height_name": ["5magl"],
      "height_station_masl": 565.0,
      "latitude": 67.973,
      "long_name": "Pallas, Finland",
      "longitude": 24.116
    }
  },
  "POC": {
    "NOAA": {
      "height": ["20m"],
      "height_name": ["20magl"],
      "height_station_masl": 0.0,
      "long_name": "Pacific Ocean"
    }
  },
  "PSA": {
    "NOAA": {
      "height": ["10m"],
      "height_name": ["10magl"],
      "height_station_masl": 10.0,
      "latitude": -64.92,
      "long_name": "Palmer Station, Antarctica",
      "longitude": -64.0
    }
  },
  "RGL": {
    "DECC": {
      "height": ["90m", "45m"],
      "height_name": ["90magl", "45magl"],
      "height_station_masl": 200.0,
      "latitude": 51.997435,
      "long_name": "Ridge Hill, UK",
      "longitude": -2.5399
    },
    "EUROCOM": {
      "height": ["90m", "45m"],
      "height_name": ["90magl", "45magl"],
      "height_station_masl": 200.0,
      "latitude": 51.997435,
      "long_name": "Ridge Hill, UK",
      "longitude": -2.5399
    }
  },
  "RPB": {
    "AGAGE": {
      "height": ["10m"],
      "height_name": ["10magl"],
      "height_station_masl": 32.0,
      "latitude": 13.16512,
      "long_name": "Ragged Point, Barbados",
      "longitude": -59.43208,
      "w3w": "///munched.brimmed.elect"
    }
  },
  "SCT": {
    "NOAA": {
      "height": ["310m"],
      "height_name": ["310magl"],
      "height_station_masl": 115.2,
      "latitude": 33.4057,
      "long_name": "Beech Island, South Carolina, United States",
      "longitude": -81.8334
    }
  },
  "SDZ": {
    "AGAGE": {
      "height": ["80m", "10m"],
      "height_name": ["80magl", "10magl"],
      "height_station_masl": 287.0,
      "latitude": 40.65,
      "long_name": "Shangdianzi, China",
      "longitude": 117.12
    }
  },
  "SGP": {
    "NOAA": {
      "height": ["60m"],
      "height_name": ["60magl"],
      "height_station_masl": 314.0,
      "latitude": 36.607,
      "long_name": "Southern Great Plains, Oklahoma, United States",
      "longitude": -97.489
    }
  },
  "SHM": {
    "NOAA": {
      "height": ["10m"],
      "height_name": ["10magl"],
      "height_station_masl": 23.0,
      "latitude": 52.711,
      "long_name": "Shemya Island, Alaska",
      "longitude": 174.126
    }
  },
  "SIO": {
    "AGAGE": {
      "height": ["10m"],
      "height_name": ["10magl"],
      "height_station_masl": 10.0,
      "latitude": 32.8328,
      "long_name": "Scripps Institue of Oceanography, California",
      "longitude": -117.2713
    }
  },
  "SMO": {
    "AGAGE": {
      "height": ["10m"],
      "height_name": ["10magl"],
      "height_station_masl": 82.0,
      "latitude": -14.25,
      "long_name": "Cape Matatula, American Samoa",
      "longitude": -170.56
    }
  },
  "SMR": {
    "EUROCOM": {
      "height": ["125m"],
      "height_name": ["125magl"],
      "height_station_masl": 181.0,
      "latitude": 61.847,
      "long_name": "Smear/Hyytiala, Finland",
      "longitude": 24.295
    }
  },
  "SNG": {
    "IITM": {
      "height": ["10m"],
      "height_name": ["10magl"],
      "long_name": "Sinhagad, India"
    }
  },
  "SPO": {
    "NOAA": {
      "height": ["10m"],
      "height_name": ["10magl"],
      "height_station_masl": 2810.0,
      "latitude": -89.98,
      "long_name": "South Pole, Antarctica",
      "longitude": -24.8
    }
  },
  "SSL": {
    "EUROCOM": {
      "height": ["12m"],
      "height_name": ["12magl"],
      "height_station_masl": 1205.0,
      "latitude": 47.92,
      "long_name": "Schauinsland, Germany",
      "longitude": 7.92
    }
  },
  "STM": {
    "NOAA": {
      "height": ["5m"],
      "height_name": ["10magl"],
      "height_station_masl": 0.0,
      "long_name": "Ocean Station M"
    }
  },
  "STR": {
    "NOAA": {
      "height": ["232m"],
      "height_name": ["232magl"],
      "height_station_masl": 254.0,
      "latitude": 37.7553,
      "long_name": "Sutro Tower, San Francisco, United States",
      "longitude": -122.4517
    }
  },
  "SUM": {
    "NOAA": {
      "height": ["10m"],
      "height_name": ["10magl"],
      "height_station_masl": 3209.5,
      "latitude": 72.596,
      "long_name": "Summit, Greenland",
      "longitude": -38.422
    }
  },
  "SYO": {
    "NOAA": {
      "height": ["10m"],
      "height_name": ["10magl"],
      "height_station_masl": 14.0,
      "latitude": -69.013,
      "long_name": "Syowa Station, Antarctica",
      "longitude": 39.59
    }
  },
  "TAC": {
    "DECC": {
      "height": ["100m", "54m", "185m"],
      "height_name": ["100magl", "50magl", "185magl"],
      "height_station_masl": 50.0,
      "latitude": 52.51775,
      "long_name": "Tacolneston Tower, UK",
      "longitude": 1.13872
    },
    "EUROCOM": {
      "height": ["100m", "54m", "185m"],
      "height_name": ["100magl", "50magl", "185magl"],
      "height_station_masl": 50.0,
      "latitude": 52.51775,
      "long_name": "Tacolneston Tower, UK",
      "longitude": 1.13872
    }
  },
  "TAP": {
    "NOAA": {
      "height": ["10m"],
      "height_name": ["10magl"],
      "height_station_masl": 20.0,
      "latitude": 36.72,
      "long_name": "Tae-ahn Peninsula, Korea",
      "longitude": 126.12
    }
  },
  "THD": {
    "AGAGE": {
      "height": ["10m"],
      "height_name": ["10magl"],
      "height_station_masl": 107.0,
      "latitude": 41.0541,
      "long_name": "Trinidad Head, California",
      "longitude": -124.151
    },
    "NOAA": {
      "height": ["10m"],
      "height_name": ["10magl"],
      "height_station_masl": 107.0,
      "latitude": 41.0541,
      "long_name": "Trinidad Head, California",
      "longitude": -124.151
    },
    "SIOCC": {
      "height": ["10m"],
      "height_name": ["10magl"],
      "height_station_masl": 107.0,
      "latitude": 41.0541,
      "long_name": "Trinidad Head, California",
      "longitude": -124.151
    }
  },
  "TIL": {
    "UCAM": {
      "height": ["27m"],
      "height_name": ["20magl"],
      "height_station_masl": 0.0,
      "latitude": 52.73667,
      "long_name": "Tilney, UK",
      "longitude": 0.32127
    }
  },
  "TMB": {
    "CRANFIELD": {
      "height": ["5m"],
      "height_name": ["5magl"],
      "height_station_masl": 5.0,
      "latitude": 51.497,
      "long_name": "Thames Barrier, UK",
      "longitude": 0.037
    }
  },
  "TPD": {
    "EC": {
      "height": ["35m"],
      "height_name": ["35magl"],
      "height_station_masl": 231.0,
      "latitude": 42.636451,
      "long_name": "Turkey Point, Ontario, Canada",
      "longitude": -80.554695
    }
  },
  "TRN": {
    "EUROCOM": {
      "height": ["180m"],
      "height_name": ["180magl"],
      "height_station_masl": 131.0,
      "latitude": 47.965,
      "long_name": "Trainou, France",
      "longitude": 2.112
    }
  },
  "TTA": {
    "DECC": {
      "height": ["222m"],
      "height_name": ["222magl"],
      "height_station_masl": 300.0,
      "latitude": 56.55511,
      "long_name": "Angus Tower, UK",
      "longitude": -2.98598
    },
    "EUROCOM": {
      "height": ["222m"],
      "height_name": ["222magl"],
      "height_station_masl": 300.0,
      "latitude": 56.55511,
      "long_name": "Angus Tower, UK",
      "longitude": -2.98598
    }
  },
  "USH": {
    "NOAA": {
      "height": ["10m"],
      "height_name": ["10magl"],
      "height_station_masl": 12.0,
      "latitude": -54.848,
      "long_name": "Ushaia, Argentina",
      "longitude": -68.311
    }
  },
  "UTA": {
    "NOAA": {
      "height": ["10m"],
      "height_name": ["10magl"],
      "height_station_masl": 1327.0,
      "latitude": 39.9018,
      "long_name": "Wendover, Utah, United States",
      "longitude": -113.7181
    }
  },
  "UUM": {
    "NOAA": {
      "height": ["10m"],
      "height_name": ["10magl"],
      "height_station_masl": 1007.0,
      "latitude": 44.452,
      "long_name": "Ulaan Uul, Mongolia",
      "longitude": 111.096
    }
  },
  "WAO": {
    "UEA": {
      "height": ["21m"],
      "height_name": ["20magl"],
      "height_station_masl": 10.0,
      "latitude": 52.95042,
      "long_name": "Weybourne Observatory, UK",
      "longitude": 1.12194
    },
    "UCAM": {
      "height": ["21m"],
      "height_name": ["20magl"],
      "height_station_masl": 10.0,
      "latitude": 52.95042,
      "long_name": "Weybourne Observatory, UK",
      "longitude": 1.12194
    },
    "EUROCOM": {
      "height": ["21m"],
      "height_name": ["20magl"],
      "height_station_masl": 10.0,
      "latitude": 52.95042,
      "long_name": "Weybourne Observatory, UK",
      "longitude": 1.12194
    }
  },
  "WBI": {
    "NOAA": {
      "height": ["380m"],
      "height_name": ["380magl"],
      "height_station_masl": 241.7,
      "latitude": 41.7248,
      "long_name": "West Branch, Iowa, United States",
      "longitude": -91.3529
    }
  },
  "WGC": {
    "NOAA": {
      "height": ["91m"],
      "height_name": ["91magl"],
      "height_station_masl": 0.0,
      "latitude": 38.265,
      "long_name": "Walnut Grove, California, United States",
      "longitude": -121.4911
    }
  },
  "WKT": {
    "NOAA": {
      "height": ["460m"],
      "height_name": ["460magl"],
      "height_station_masl": 251.0,
      "latitude": 31.3149,
      "long_name": "Moody, Texas, United States",
      "longitude": -97.3269
    }
  },
  "WLG": {
    "NOAA": {
      "height": ["10m"],
      "height_name": ["10magl"],
      "height_station_masl": 3810.0,
      "latitude": 36.28,
      "long_name": "Mt. Waliguan, China",
      "longitude": 100.9
    }
  },
  "WSA": {
    "EC": {
      "height": ["25m"],
      "height_name": ["25magl"],
      "height_station_masl": 5.0,
      "latitude": 43.93227,
      "long_name": "Sable Island, Nova Scotia, Canada",
      "longitude": -60.01256
    }
  },
  "ZEP": {
    "AGAGE": {
      "height": ["10m"],
      "height_name": ["16magl"],
      "height_station_masl": 474.0,
      "latitude": 78.925,
      "long_name": "Zeppelin, Ny Alesund, Norway",
      "longitude": 11.92222
    }
  },
  "BIS": {
    "EUROCOM": {
      "height": ["47m"],
      "height_name": ["47magl"],
      "height_station_masl": 73.0,
      "latitude": 44.38,
      "long_name": "Biscarosse",
      "longitude": -1.23
    }
  },
  "BIK": {
    "EUROCOM": {
      "height": ["300m"],
      "height_name": ["300magl"],
      "height_station_masl": 150.0,
      "latitude": 53.23,
      "long_name": "Bialystok",
      "longitude": 23.03
    }
  },
  "BIR": {
    "EUROCOM": {
      "height": ["10m"],
      "height_name": ["10magl"],
      "height_station_masl": 190.0,
      "latitude": 58.39,
      "long_name": "Birkenes",
      "longitude": 8.25
    }
  },
  "PRS": {
    "EUROCOM": {
      "height": ["10m"],
      "height_name": ["10magl"],
      "height_station_masl": 3480.0,
      "latitude": 45.93,
      "long_name": "Plateau Rosa",
      "longitude": 7.7
    }
  },
  "SVB": {
    "EUROCOM": {
      "long_name": "Svartberget, Sweden",
      "latitude": 64.14,
      "longitude": 19.46
    }
  },
  "AND": {
    "NOAA": {
      "height": ["47m"],
      "height_name": ["47magl"],
      "height_station_masl": 47.0,
      "latitude": 36.539,
      "long_name": "Anmyeon-do, South Korea",
      "longitude": 126.329
    }
  },
  "BWD": {
    "NOAA": {
      "height_station_masl": 16.8,
      "latitude": 38.9343,
      "long_name": "Brentwood, Maryland, United States",
      "longitude": -76.9556
    }
  },
  "CRV": {
    "NOAA": {
      "height": ["10m"],
      "height_name": ["10magl"],
      "height_station_masl": 611.43,
      "latitude": 64.9863,
      "long_name": "Carbon in Arctic Reservoirs Vulnerability Experiment (CARVE), United States",
      "longitude": -147.598
    }
  },
  "FLK": {
    "BAS": {
      "height": ["10m"],
      "height_name": ["10magl"],
      "height_station_masl": 147.0,
      "latitude": -51.707,
      "long_name": "Sapper Hill, Falkland Islands, Malvinas",
      "longitude": -57.87
    }
  },
  "GOSAT-BRAZIL-LAND-upp": {
    "GOSAT/GOSAT-BRAZIL-LAND-upp": {
      "height": ["column"],
      "height_name": ["column"],
      "long_name": "GOSAT, Brazil, land points, upper XCO2 bound",
      "platform": "satellite"
    }
  },
  "GOSAT-BRAZIL-LAND-low": {
    "GOSAT/GOSAT-BRAZIL-LAND-low": {
      "height": ["column"],
      "height_name": ["column"],
      "long_name": "GOSAT, Brazil, land points, lower XCO2 bound",
      "platform": "satellite"
    }
  },
  "GOSAT-SOUTHAMERICA": {
    "GOSAT/GOSAT-SOUTHAMERICA": {
      "height": ["column"],
      "height_name": ["column"],
      "long_name": "GOSAT, South America",
      "platform": "satellite"
    }
  },
  "GOSAT-SOUTHAMERICA-LAND": {
    "GOSAT/GOSAT-SOUTHAMERICA-LAND": {
      "height": ["column"],
      "height_name": ["column"],
      "long_name": "GOSAT, South America, land points only",
      "platform": "satellite"
    }
  },
  "INX": {
    "NOAA": {
      "height": ["10m"],
      "height_name": ["10magl"],
      "height_station_masl": "Variable",
      "latitude": 39.5805,
      "long_name": "INFLUX (Indianapolis Flux Experiment), United States",
      "longitude": -86.4207
    }
  },
  "LEW": {
    "NOAA": {
      "height": ["5m"],
      "height_name": ["5magl"],
      "height_station_masl": 161.0,
      "latitude": 40.9447,
      "long_name": "Lewisburg, Pennsylvania, United States",
      "longitude": -76.8789
    }
  },
  "MSH": {
    "NOAA": {
      "height": ["?5m"],
      "height_name": ["?5magl"],
      "height_station_masl": 32.3,
      "latitude": 41.6568,
      "long_name": "Mashpee, Massachusetts, United States",
      "longitude": -70.4973
    }
  },
  "NEB": {
    "NOAA": {
      "height": ["?5m"],
      "height_name": ["?5magl"],
      "height_station_masl": 44.0,
      "latitude": 39.3154,
      "long_name": "NE Baltimore, Maryland, United States",
      "longitude": -76.583
    }
  },
  "NWB": {
    "NOAA": {
      "height": ["?5m"],
      "height_name": ["?5magl"],
      "height_station_masl": 135.0,
      "latitude": 39.3445,
      "long_name": "NW Baltimore, United States ",
      "longitude": -76.6851
    }
  },
  "RHL": {
    "RHUL": {
      "height": ["20m"],
      "height_name": ["20magl"],
      "height_station_masl": 70.0,
      "latitude": 51.426209,
      "long_name": "Royal Holloway, University of London, UK",
      "longitude": -0.561312
    }
  },
  "RWA": {
    "AGAGE": {
      "height": ["10m"],
      "height_name": ["10magl"],
      "height_station_masl": 2600.0,
      "latitude": -1.6,
      "long_name": "Mt Mugogo",
      "longitude": 29.6
    }
  },
  "TMD": {
    "NOAA": {
      "height": ["?5m"],
      "height_name": ["?5magl"],
      "height_station_masl": 561.0,
      "latitude": 39.5768,
      "long_name": "Thurmont, Maryland, United States",
      "longitude": -77.4881
    }
  },
  "TOB": {
    "AGAGE": {
      "height": ["12m"],
      "height_name": ["12magl"],
      "height_station_masl": 825.0,
      "latitude": 50.221884,
      "long_name": "Taunus, Germany",
      "longitude": 8.446397
    }
  },
  "WIS": {
    "NOAA": {
      "height": ["5m"],
      "height_name": ["5magl"],
      "height_station_masl": 151.0,
      "latitude": 29.9646,
      "long_name": "Weizmann Institute of Science at Arva Institute, Israel",
      "longitude": 35.0605
    }
  }
}
