{
    "BIK": {
        "latitude": 53.23,
        "long_name": "Bialystok, Poland",
        "longitude": 23.01
    },
    "BIR": {
        "latitude": 58.23,
        "long_name": "Birkenes Observatory, Norway",
        "longitude": 8.15
    },
    "BIS": {
        "latitude": 44.38,
        "long_name": "Biscarosse, France",
        "longitude": -1.23
    },
    "CBW": {
        "latitude": 58.97,
        "long_name": "Cabauw Tower, Netherlands",
        "longitude": -4.926
    },
    "CMN": {
        "latitude": 44.193889,
        "long_name": "Monte Cimone, Italy",
        "longitude": 10.701389
    },
    "HEI": {
        "latitude": 49.417,
        "long_name": "Heidelberg, Germany",
        "longitude": 8.674
    },
    "HFD": {
        "latitude": 50.97675,
        "long_name": "Heathfield, UK",
        "longitude": 0.23048
    },
    "HUN": {
        "latitude": 46.95,
        "long_name": "Hegyhatsal, Hungary",
        "longitude": 16.65
    },
    "IZO": {
        "latitude": 28.309,
        "long_name": "Izana, Tenerife",
        "longitude": -16.499
    },
    "JFJ": {
        "latitude": 46.5475,
        "long_name": "Jungfraujoch, Switzerland",
        "longitude": 7.979167
    },
    "KAS": {
        "latitude": 49.232,
        "long_name": "Kasprowy, Poland",
        "longitude": 19.982
    },
    "LMP": {
        "latitude": 35.52,
        "long_name": "Lampedusa, Italy",
        "longitude": 12.62
    },
    "LUT": {
        "latitude": 53.404,
        "long_name": "Lutjewad, Netherlands",
        "longitude": 6.353
    },
    "MHD": {
        "latitude": 53.32611,
        "long_name": "Mace Head, Ireland",
        "longitude": -9.90389
    },
    "OPE": {
        "latitude": 48.562,
        "long_name": "Observatoire Perenne de l'Environnement, France",
        "longitude": 5.504
    },
    "PAL": {
        "latitude": 67.973,
        "long_name": "Pallas, Finland",
        "longitude": 24.116
    },
    "PRS": {
        "latitude": 45.935,
        "long_name": "Plateau Rosa, Italy",
        "longitude": 7.707
    },
    "RGL": {
        "latitude": 51.997435,
        "long_name": "Ridge Hill, UK",
        "longitude": -2.5399
    },
    "SMR": {
        "latitude": 61.847,
        "long_name": "Hyytiälä, Finland",
        "longitude": 24.295
    },
    "SSL": {
        "latitude": 47.92,
        "long_name": "Schauinsland, Germany",
        "longitude": 7.92
    },
    "SVB": {
        "latitude": 64.14,
        "long_name": "Svartberget, Sweden",
        "longitude": 19.46
    },
    "TAC": {
        "latitude": 52.51775,
        "long_name": "Tacolneston Tower, UK",
        "longitude": 1.13872
    },
    "TRN": {
        "latitude": 47.965,
        "long_name": "Trainou, France",
        "longitude": 2.112
    },
    "TTA": {
        "latitude": 56.55511,
        "long_name": "Angus Tower, UK",
        "longitude": -2.98598
    },
    "WAO": {
        "latitude": 52.95042,
        "long_name": "Weybourne Observatory, UK",
        "longitude": 1.12194
    }
}